City_ID,City,Lat,Lng,Max Temp,Humidity,Cloudiness,Wind Speed,Country,Date
0,urangan,-25.3,152.9,294.48,70,100,7.34,AU,1728856253
1,kisangani,0.5167,25.2,294.63,94,31,0.54,CD,1728856254
2,vorgashor,67.5833,63.95,271.69,95,55,6.27,RU,1728856255
3,ushuaia,-54.8,-68.3,281.96,71,40,7.72,AR,1728856257
4,port-aux-francais,-49.35,70.2167,277.08,90,93,10.38,TF,1728856258
5,edinburgh of the seven seas,-37.0676,-12.3116,286.89,81,100,11.12,SH,1728856260
6,dudinka,69.4058,86.1778,273.19,87,100,9.41,RU,1728856261
7,papatowai,-46.5619,169.4708,283.33,51,64,0.4,NZ,1728856262
8,motygino,58.1831,94.7592,268.99,64,100,3.28,RU,1728856263
9,paoua,7.2427,16.4406,293.64,93,96,1.32,CF,1728856265
10,blackmans bay,-43.0167,147.3167,282.89,71,20,0.89,AU,1728856266
11,kievka,50.2619,71.5514,271.59,49,100,7.79,KZ,1728856267
12,nova sintra,14.8667,-24.7167,300.78,74,37,2.13,CV,1728856269
13,west island,-12.1568,96.8225,299.14,89,40,6.69,CC,1728856270
14,castillos,-34.1667,-53.8333,289.01,74,100,3.42,UY,1728856271
15,joal-fadiout,14.1667,-16.8333,300.34,76,40,5.23,SN,1728856273
16,ancud,-41.8697,-73.8203,284.63,80,58,3.01,CL,1728855985
17,kapa'a,22.0752,-159.319,301.33,75,40,5.14,US,1728856276
18,hammerfest,70.6634,23.6821,278.4,70,0,1.54,NO,1728856278
19,port elizabeth,-33.918,25.5701,290.31,94,75,8.23,ZA,1728855939
20,aasiaat,68.7098,-52.8699,273.05,73,81,2.17,GL,1728856280
21,grytviken,-54.2811,-36.5092,271.95,81,25,4.73,GS,1728856281
22,puerto baquerizo moreno,-0.9,-89.6,296.7,88,40,5.66,EC,1728856207
23,albany,42.6001,-73.9662,280.69,79,97,2.28,US,1728856120
24,manta,-0.95,-80.7333,303.03,54,20,4.12,EC,1728856115
25,lerwick,60.1545,-1.1494,277.9,55,47,0.66,GB,1728856286
26,waitangi,-43.9535,-176.5597,286.38,80,95,3.13,NZ,1728856288
27,hawaiian paradise park,19.5933,-154.9731,301.97,70,20,4.12,US,1728856289
28,anadyr,64.75,177.4833,260.43,85,20,3.0,RU,1728856290
29,adamstown,-25.066,-130.1015,294.1,81,100,6.96,PN,1728856292
30,ilulissat,69.2167,-51.1,272.16,80,40,3.6,GL,1728856293
31,kerikeri,-35.2268,173.9474,286.94,62,100,1.96,NZ,1728856294
32,yellowknife,62.456,-114.3525,282.82,78,75,9.77,CA,1728856296
33,saint clairsville,40.0806,-80.9001,298.33,50,6,7.73,US,1728856297
34,iqaluit,63.7506,-68.5145,275.0,74,75,4.63,CA,1728856300
35,nabire,-3.3667,135.4833,297.67,94,100,1.5,ID,1728856301
36,goondiwindi,-28.55,150.3167,291.69,57,100,6.88,AU,1728856302
37,san patricio,28.017,-97.5169,306.12,30,0,4.53,US,1728856304
38,puerto natales,-51.7236,-72.4875,285.4,50,40,15.43,CL,1728856305
39,port lincoln,-34.7333,135.8667,289.08,82,0,6.64,AU,1728856306
40,sovetskiy,61.3614,63.5842,273.74,66,97,2.48,RU,1728856307
41,taulaga,-11.0553,-171.0883,300.71,78,77,7.15,AS,1728856308
42,kodiak,57.79,-152.4072,281.88,87,75,6.17,US,1728856310
43,acarau,-2.8856,-40.12,299.88,69,100,8.18,BR,1728856311
44,verkhnevilyuysk,63.4453,120.3167,261.9,97,96,1.37,RU,1728856312
45,siwa oasis,29.2041,25.5195,300.17,52,2,5.72,EG,1728856314
46,ust-nera,64.5667,143.2,263.6,90,75,1.56,RU,1728856315
47,jamestown,42.097,-79.2353,284.27,100,100,3.09,US,1728856317
48,alesund,62.4723,6.1549,278.89,88,75,3.6,NO,1728856318
49,ribeira grande,38.5167,-28.7,294.69,88,75,12.35,PT,1728856319
50,fortuna,40.5982,-124.1573,293.11,85,0,5.66,US,1728856321
51,lobujya,27.95,86.8167,264.59,58,0,2.36,NP,1728856322
52,tan-tan,28.438,-11.1032,293.38,80,36,3.73,MA,1728856323
53,san antonio de pale,-1.4014,5.6325,298.78,84,100,5.16,GQ,1728856325
54,la'ie,21.6477,-157.9253,302.07,68,17,3.58,US,1728856083
55,naze,28.3667,129.4833,297.66,77,3,4.62,JP,1728856327
56,north battleford,52.7834,-108.2847,286.2,33,0,7.72,CA,1728856329
57,bethel,41.3712,-73.414,290.38,68,75,4.63,US,1728856190
58,tiksi,71.6872,128.8694,260.91,88,100,4.44,RU,1728856331
59,puerto ayora,-0.7393,-90.3518,294.57,93,67,2.24,EC,1728856332
60,vadso,70.0744,29.7487,279.24,81,20,13.38,NO,1728856334
61,rongelap,11.1635,166.8941,301.56,77,57,6.26,MH,1728856335
62,longyearbyen,78.2186,15.6401,275.06,75,75,11.32,SJ,1728856336
63,happy valley-goose bay,53.3168,-60.3315,278.32,87,100,3.6,CA,1728856338
64,zhangjiakou,40.81,114.8794,283.02,92,14,1.27,CN,1728856339
65,talnakh,69.4865,88.3972,273.53,98,100,8.32,RU,1728856341
66,saipan,15.1355,145.701,300.54,89,40,0.0,MP,1728856342
67,yakutsk,62.0339,129.7331,268.13,80,75,2.0,RU,1728856165
68,udachny,66.4167,112.4,252.84,100,92,2.47,RU,1728856345
69,hermanus,-34.4187,19.2345,284.71,84,5,2.96,ZA,1728856347
70,abuja,9.0574,7.4898,298.23,95,100,1.24,NG,1728856251
71,lihue,21.9789,-159.3672,300.92,65,40,5.14,US,1728856273
72,new norfolk,-42.7826,147.0587,283.55,70,40,1.12,AU,1728856351
73,shalqar,47.8333,59.6,273.26,46,16,8.04,KZ,1728856353
74,meadow lake,34.8014,-106.5436,301.66,17,100,3.1,US,1728856354
75,lukolela,-1.0605,17.1821,295.54,95,97,1.52,CD,1728856357
76,ixtapa,20.7,-105.2,304.39,66,20,4.12,MX,1728856358
77,praia da vitoria,38.7333,-27.0667,292.29,100,75,1.27,PT,1728856360
78,berbera,10.4396,45.0143,303.8,64,23,3.3,SO,1728856363
79,santa cecilia,-26.9608,-50.4269,286.69,95,100,2.99,BR,1728856364
80,filingue,14.3521,3.3168,305.35,39,67,4.76,NE,1728856365
81,narok,-1.0783,35.8601,288.03,61,52,3.05,KE,1728856366
82,erumaippatti,11.1667,78.2833,296.88,96,100,1.11,IN,1728856367
83,rio grande,-32.035,-52.0986,290.97,79,25,8.05,BR,1728856317
84,shubarkuduk,49.1447,56.4872,271.47,55,0,5.16,KZ,1728856370
85,pskov,57.8136,28.3496,280.1,100,100,2.0,RU,1728856125
86,sadjoavato,-12.6334,49.349,293.35,77,22,4.32,MG,1728856372
87,magadan,59.5667,150.8,274.29,91,58,2.26,RU,1728856374
88,choibalsan,48.0667,114.5,272.43,91,100,9.8,MN,1728856375
89,glace bay,46.1969,-59.957,283.13,84,75,5.66,CA,1728856376
90,hamilton,39.1834,-84.5333,297.4,48,2,10.28,US,1728855859
91,gornopravdinsk,60.05,69.9,271.38,73,96,2.3,RU,1728856379
92,dalgopol,43.05,27.35,286.92,71,100,1.54,BG,1728856380
93,great falls,47.5002,-111.3008,293.24,38,0,4.12,US,1728856200
94,motozintla,15.3667,-92.2333,290.66,92,100,1.11,MX,1728856383
95,labytnangi,66.6572,66.4183,273.05,86,20,5.57,RU,1728856384
96,santa vitoria do palmar,-33.5189,-53.3681,289.75,78,99,4.34,BR,1728856385
97,al markaz,25.4,49.7333,301.48,72,0,1.33,SA,1728856387
98,saint-philippe,-21.3585,55.7679,293.72,75,44,4.86,RE,1728856388
99,mount gambier,-37.8333,140.7667,286.79,82,18,4.33,AU,1728856389
100,invercargill,-46.4,168.35,282.6,77,100,1.79,NZ,1728856391
101,bamboo flat,11.7,92.7167,299.2,94,40,1.54,IN,1728856392
102,chernyshevskiy,63.0128,112.4714,264.68,90,98,3.24,RU,1728856393
103,nar'yan-mar,67.6713,53.087,273.66,98,62,5.74,RU,1728856395
104,paita,-5.0892,-81.1144,292.5,80,24,7.6,PE,1728856396
105,petropavlovsk-kamchatsky,53.0452,158.6483,278.48,75,75,6.0,RU,1728856398
106,puerto deseado,-47.7503,-65.8938,286.53,48,0,3.91,AR,1728856366
107,ebon,4.582,168.6964,302.46,73,96,6.07,MH,1728856400
108,college,64.8569,-147.8028,277.64,85,75,1.54,US,1728856402
109,loango,-4.6719,11.8312,297.7,86,96,3.05,CG,1728856405
110,pervomayskoye,43.919,46.7102,285.9,58,100,7.21,RU,1728856406
111,san-pedro,4.7485,-6.6363,295.22,93,100,3.06,CI,1728856408
112,mata-utu,-13.2816,-176.1745,300.61,83,99,7.45,WF,1728856409
113,crane,31.3974,-102.3501,307.14,10,2,7.03,US,1728856412
114,isafjordur,66.0755,-23.124,270.94,68,1,2.59,IS,1728856413
115,dryden,49.7833,-92.7503,278.31,81,75,3.6,CA,1728856415
116,caucete,-31.6518,-68.2811,299.97,37,45,5.55,AR,1728856416
117,ornskoldsvik,63.2909,18.7153,281.68,87,100,2.06,SE,1728856417
118,lamar,33.6668,-95.5836,306.1,36,0,3.09,US,1728856312
119,mammoth lakes,37.6485,-118.9721,293.55,15,0,2.57,US,1728856420
120,ogoja,6.6547,8.7976,295.9,94,75,2.54,NG,1728856421
121,alice springs,-23.7,133.8833,297.9,41,28,2.06,AU,1728856422
122,perbaungan,3.5679,98.956,296.87,93,100,0.16,ID,1728856424
123,lebu,-37.6167,-73.65,284.96,78,32,5.52,CL,1728856425
124,atafu village,-8.5421,-172.5159,301.09,76,37,5.48,TK,1728856426
125,gros morne,19.6667,-72.6833,302.04,73,34,1.13,HT,1728856427
126,lubango,-14.9172,13.4925,288.07,94,0,2.57,AO,1728856429
127,tadine,-21.55,167.8833,295.26,51,100,6.05,NC,1728856430
128,namibe,-15.1961,12.1522,293.78,87,78,1.92,AO,1728856431
129,fort st. john,56.2499,-120.8529,294.09,35,75,6.17,CA,1728856340
130,fale old settlement,-9.3852,-171.2468,301.23,76,64,5.23,TK,1728856434
131,mersa matruh,31.3525,27.2453,298.26,69,20,3.6,EG,1728856435
132,lorengau,-2.0226,147.2712,302.77,68,93,4.06,PG,1728856436
133,loch garman,52.3342,-6.4575,284.2,100,100,7.15,IE,1728856437
134,caussade,44.1608,1.5391,290.04,80,3,1.63,FR,1728856438
135,berdigestyakh,62.0989,126.6992,266.61,97,100,1.59,RU,1728856440
136,shevchenkove,49.6959,37.1735,277.86,79,100,8.23,UA,1728856441
137,chonchi,-42.6128,-73.8092,286.55,83,87,0.48,CL,1728856194
138,margaret river,-33.95,115.0667,287.98,89,49,3.73,AU,1728856443
139,wailua homesteads,22.0669,-159.378,300.59,75,40,5.14,US,1728856444
140,brokopondo,4.75,-55.1667,303.12,50,100,3.45,SR,1728856823
141,port mathurin,-19.6833,63.4167,295.23,75,80,9.84,MU,1728856824
142,qaqortoq,60.7167,-46.0333,276.03,61,53,4.41,GL,1728856825
143,burang,30.25,81.1667,274.12,32,3,1.77,CN,1728856826
144,utrik,11.2278,169.8474,301.5,77,100,6.29,MH,1728856827
145,whitehorse,60.7161,-135.0538,282.05,57,75,6.17,CA,1728856828
146,arraial do cabo,-22.9661,-42.0278,296.07,88,20,4.12,BR,1728856829
147,diamantino,-14.4086,-56.4461,296.91,73,98,3.87,BR,1728856831
148,tazovsky,67.4667,78.7,274.95,80,79,11.8,RU,1728856833
149,port moresby,-9.4431,147.1797,298.83,83,40,1.03,PG,1728856835
150,aykhal,66.0,111.5,258.08,100,100,3.28,RU,1728856836
151,mbale,1.0821,34.175,291.52,86,49,2.2,UG,1728856838
152,yuzhno-kurilsk,44.0306,145.8556,283.6,60,0,2.24,RU,1728856839
153,selkirk,50.1436,-96.8845,282.14,71,91,3.58,CA,1728856840
154,tipasa,36.5897,2.4475,301.55,39,74,5.28,DZ,1728856842
155,cabo san lucas,22.8909,-109.9124,301.75,66,0,3.84,MX,1728856664
156,lensk,60.7253,114.9278,264.98,84,59,3.21,RU,1728856845
157,sorsk,54.0033,90.2467,266.6,71,38,0.41,RU,1728856847
158,la passe,45.5549,-0.8967,291.11,84,29,3.93,FR,1728856848
159,rundu,-17.9333,19.7667,294.83,48,93,6.22,NA,1728856849
160,vilyuysk,63.7553,121.6247,261.44,99,97,1.47,RU,1728856851
161,lompoc,34.6391,-120.4579,292.38,86,100,6.17,US,1728856851
162,villa elisa,-25.3667,-57.6167,303.73,54,0,2.57,PY,1728856853
163,asekeyevo,53.5742,52.7972,272.81,50,1,1.05,RU,1728856855
164,soavinandriana,-19.1667,46.7333,285.06,70,73,3.03,MG,1728856856
165,sanchazi,42.0817,126.6003,282.87,82,100,1.83,CN,1728856667
166,talpa de allende,20.3833,-104.8167,297.91,63,27,1.52,MX,1728856859
167,avarua,-21.2078,-159.775,299.18,73,75,8.23,CK,1728856860
168,tuy hoa,13.0833,109.3,296.78,93,85,1.34,VN,1728856862
169,carnarvon,-24.8667,113.6333,291.22,76,0,5.74,AU,1728856863
170,marathon,44.9,-89.7668,279.89,88,100,6.17,US,1728856864
171,bossangoa,6.4926,17.4552,294.51,95,100,2.06,CF,1728856865
172,stanley,54.868,-1.6985,278.16,84,0,0.51,GB,1728856601
173,anjangaon,21.1631,77.3094,296.59,88,100,2.07,IN,1728856868
174,sao joao da barra,-21.6403,-41.0511,297.2,82,100,6.03,BR,1728856870
175,prince rupert,54.3161,-130.3201,284.2,92,0,2.06,CA,1728856871
176,hauterive,46.0901,3.4459,286.46,93,13,1.38,FR,1728856872
177,yaren,-0.5472,166.916,301.63,75,10,7.5,NR,1728856873
178,thompson,55.7435,-97.8558,274.24,64,75,2.06,CA,1728856875
179,khilok,51.3674,110.4676,265.53,78,57,4.66,RU,1728856876
180,kavaratti,10.5669,72.642,299.63,84,93,2.13,IN,1728856877
181,sitka,57.0531,-135.33,283.25,81,100,2.64,US,1728856880
182,aki,33.5,133.9,290.12,82,16,3.53,JP,1728856881
183,kalmunai,7.4167,81.8167,298.01,90,100,3.3,LK,1728856883
184,najran,17.4924,44.1277,295.19,24,17,2.09,SA,1728856885
185,kayangel,8.0823,134.7173,302.27,74,74,4.35,PW,1728856886
186,nelson bay,-32.7167,152.15,292.09,67,98,1.79,AU,1728856887
187,tofol,5.3248,163.0078,304.03,66,75,3.09,FM,1728856889
188,sarkand,45.41,79.9186,283.75,73,100,1.07,KZ,1728856890
189,olonkinbyen,70.9221,-8.7187,271.89,94,100,8.69,SJ,1728856891
190,san juan,-31.5375,-68.5364,299.14,36,40,4.32,AR,1728856802
191,villa la angostura,-40.7617,-71.6463,284.28,78,41,1.63,AR,1728856820
192,kadoma,34.7333,135.5833,290.64,88,15,1.54,JP,1728856896
193,agua prieta,31.3,-109.5667,306.59,8,0,4.12,MX,1728856897
194,vila velha,-20.3297,-40.2925,297.12,88,40,6.17,BR,1728856899
195,cinisi,38.1562,13.1073,291.71,72,0,2.06,IT,1728856901
196,faya-largeau,17.9257,19.1043,303.88,14,77,5.51,TD,1728856902
197,argo,37.6333,22.7333,293.42,85,15,1.16,GR,1728856903
198,inhambane,-23.865,35.3833,294.19,87,0,2.84,MZ,1728856905
199,road town,18.4167,-64.6167,304.17,66,20,2.06,VG,1728856885
200,carauari,-4.8828,-66.8958,303.94,44,70,0.41,BR,1728856907
201,saguenay,48.4168,-71.0657,280.61,69,75,3.6,CA,1728856717
202,montepuez,-13.1256,38.9997,294.14,81,11,2.22,MZ,1728856910
203,bilibino,68.0546,166.4372,265.72,76,100,0.69,RU,1728856911
204,enriquillo,17.9,-71.2333,300.83,78,39,4.58,DO,1728856912
205,kapuskasing,49.4169,-82.4331,280.2,53,20,5.14,CA,1728856914
206,rawlins,41.7911,-107.2387,296.09,15,0,2.06,US,1728856915
207,cockburn town,21.4612,-71.1419,302.53,75,52,6.42,TC,1728856917
208,dunedin,-45.8742,170.5036,284.71,62,2,3.58,NZ,1728856796
209,shuangjiang,26.1547,109.7138,290.11,95,100,1.4,CN,1728856919
210,trairi,-3.2778,-39.2689,299.0,76,68,4.41,BR,1728856751
211,montagu,-40.7667,144.9667,284.23,65,16,3.96,AU,1728856923
212,damghan,36.1683,54.348,291.33,45,2,0.68,IR,1728856925
213,castillo de locubin,37.5286,-3.9422,292.88,70,99,2.3,ES,1728856927
214,ghadamis,30.1337,9.5007,302.43,35,0,6.66,LY,1728856929
215,dumfries,38.5676,-77.328,299.01,55,24,0.89,US,1728856931
216,okha,53.5739,142.9478,276.4,79,85,3.72,RU,1728856932
217,zaozersk,69.4005,32.4476,276.35,79,100,6.08,RU,1728856933
218,port saint john's,-31.6229,29.5448,293.43,90,41,0.45,ZA,1728856935
219,sattahip,12.6664,100.9007,300.2,83,20,2.06,TH,1728856936
220,saint-joseph,-21.3667,55.6167,294.36,72,34,5.33,RE,1728856938
221,hasaki,35.7333,140.8333,295.48,55,26,6.19,JP,1728856939
222,monrovia,6.3005,-10.7969,298.3,85,99,2.02,LR,1728856941
223,narrabri,-30.3167,149.7833,289.17,80,100,5.59,AU,1728856942
224,touros,-5.1989,-35.4608,298.37,81,4,5.83,BR,1728856944
225,yamada,39.4667,141.95,285.41,73,15,1.1,JP,1728856945
226,stornoway,58.2093,-6.3865,282.13,81,75,9.26,GB,1728856946
227,fort bragg,35.139,-79.006,300.06,32,0,5.66,US,1728856723
228,tsiombe,-25.3,45.4833,295.06,48,0,4.48,MG,1728856949
229,taroa,8.7058,171.2275,301.88,75,9,6.59,MH,1728856950
230,bayanhongor,46.7167,100.1167,271.16,66,1,0.81,MN,1728856952
231,siverek,37.755,39.3167,293.9,50,13,1.53,TR,1728856953
232,jayapura,-2.5333,140.7,298.81,91,73,2.15,ID,1728856954
233,nguigmi,14.2495,13.1092,300.03,71,62,6.78,NE,1728856956
234,sault ste. marie,46.5168,-84.3333,287.31,24,0,4.63,CA,1728856691
235,cochin,9.9399,76.2602,297.14,89,100,2.43,IN,1728856958
236,karratha,-20.7377,116.8463,298.08,22,4,4.41,AU,1728856960
237,bredasdorp,-34.5322,20.0403,285.22,90,28,3.11,ZA,1728856961
238,warmbad,-28.45,18.7333,294.24,37,57,5.62,NA,1728856962
239,alofi,-19.0595,-169.9187,301.09,69,75,5.66,NU,1728856965
240,iskateley,67.6803,53.1512,273.62,98,63,5.69,RU,1728856966
241,sisimiut,66.9395,-53.6735,273.98,76,71,3.43,GL,1728856968
242,bazarnyye mataki,54.8833,49.9333,273.29,54,5,2.13,RU,1728856969
243,pailon,-17.65,-62.75,308.78,27,50,3.31,BO,1728856970
244,luderitz,-26.6481,15.1594,291.29,62,57,11.37,NA,1728856972
245,kamaishi,39.2667,141.8833,287.14,77,63,1.04,JP,1728856973
246,sebdou,34.637,-1.3314,294.54,50,86,3.29,DZ,1728856976
247,al ghayzah,16.2079,52.176,298.98,86,19,3.43,YE,1728856977
248,st. john's,47.5649,-52.7093,282.9,86,75,9.77,CA,1728856737
249,itoman,26.1247,127.6694,298.16,78,20,2.57,JP,1728856980
250,howrah,22.5892,88.3103,301.15,78,40,0.0,IN,1728856981
251,babu,24.4167,111.5167,298.74,69,100,1.07,CN,1728856982
252,chhor,25.5167,69.7667,301.03,52,92,2.82,PK,1728856983
253,tuensang,26.2833,94.8333,287.49,97,21,1.63,IN,1728856985
254,selfoss,63.9331,-20.9971,272.62,44,65,4.88,IS,1728856986
255,bad bevensen,53.0833,10.5833,280.64,80,100,4.92,DE,1728856987
256,kingston,17.997,-76.7936,305.68,62,20,8.23,JM,1728856837
257,namtsy,62.7161,129.6658,266.16,95,100,1.46,RU,1728856990
258,paulo afonso,-9.4061,-38.2147,306.31,31,0,5.14,BR,1728856991
259,uyskoye,54.3775,60.0047,267.37,91,28,2.09,RU,1728856992
260,uturoa,-16.7333,-151.4333,298.02,69,53,7.29,PF,1728856994
261,madimba,-10.4,40.3333,296.4,89,5,1.61,TZ,1728856995
262,holualoa,19.6228,-155.9522,300.68,77,12,0.45,US,1728856996
263,nacala,-14.5428,40.6728,296.12,91,73,1.7,MZ,1728856998
264,belmonte,-15.8631,-38.8828,297.61,88,44,2.84,BR,1728856999
265,broome,42.2506,-75.833,284.05,86,100,2.06,US,1728857000
266,shiyan,32.6475,110.7781,287.75,91,0,1.69,CN,1728857002
267,ulsteinvik,62.3432,5.8487,278.32,90,100,2.2,NO,1728857004
268,wusong,30.95,117.7833,291.74,87,100,1.99,CN,1728857006
269,copala,16.65,-98.9833,300.89,74,73,2.05,MX,1728857007
270,port douglas,-16.4833,145.4667,297.51,73,2,2.59,AU,1728856908
271,langsa,4.4683,97.9683,296.56,97,100,0.66,ID,1728856719
272,tlapehuala,18.2167,-100.5167,302.0,62,8,0.33,MX,1728857010
273,thal,35.4791,72.2439,279.53,64,0,1.52,PK,1728857012
274,malango,-2.9627,119.9001,292.53,99,98,0.93,ID,1728857013
275,constantia,44.1833,28.65,284.65,68,98,4.3,RO,1728857014
276,manaure,11.7751,-72.4445,305.48,59,99,6.44,CO,1728857015
277,nemuro,43.3236,145.575,283.27,63,0,1.9,JP,1728857018
278,ketchikan,55.3422,-131.6461,285.56,79,100,2.86,US,1728857020
279,envira,-7.3,-70.2167,305.18,47,49,2.23,BR,1728856989
280,badger,64.8,-147.5333,278.14,82,100,0.9,US,1728857023
281,abashiri,44.0213,144.2697,281.39,65,0,3.52,JP,1728857024
282,baie-saint-paul,47.4411,-70.4986,283.23,70,100,1.96,CA,1728857025
283,quellon,-43.1167,-73.6167,283.82,86,98,2.06,CL,1728857026
284,radomyshl,50.4961,29.2291,282.85,60,94,5.57,UA,1728857028
285,noosa heads,-26.3833,153.15,294.09,61,100,5.0,AU,1728856807
286,smithers,54.7804,-127.1743,283.33,93,100,2.06,CA,1728857030
287,nyurba,63.2842,118.3319,258.52,98,92,1.83,RU,1728857032
288,nuku'alofa,-21.1333,-175.2,300.34,89,75,5.14,TO,1728857033
289,shatura,55.5725,39.5368,277.22,52,92,5.34,RU,1728857035
290,fuglafjordur,62.244,-6.814,278.3,65,93,9.85,FO,1728857036
291,east london,-33.0153,27.9116,292.45,90,79,4.88,ZA,1728856831
292,richards bay,-28.783,32.0377,293.83,95,3,3.05,ZA,1728857039
293,nuuk,64.1835,-51.7216,275.86,69,100,1.58,GL,1728856773
294,san andres,12.5847,-81.7006,302.16,70,20,5.66,CO,1728857043
295,ribas do rio pardo,-20.4431,-53.7592,303.22,38,28,3.26,BR,1728857044
296,isangel,-19.55,169.2667,298.21,65,75,3.6,VU,1728857045
297,diego de almagro,-26.3667,-70.05,298.49,19,4,3.38,CL,1728857046
298,saudarkrokur,65.7461,-19.6394,269.84,59,0,2.11,IS,1728857048
299,qamdo,31.1667,97.2333,273.35,73,16,0.49,CN,1728857049
300,tulun,54.5611,100.5792,268.19,65,100,1.47,RU,1728857050
301,anacapri,40.5558,14.2136,293.62,63,3,1.98,IT,1728857052
302,mirny,62.5353,113.9611,263.06,92,86,3.21,RU,1728857053
303,dumai,1.6833,101.45,296.15,97,100,1.88,ID,1728857055
304,kloulklubed,7.0419,134.2556,302.29,68,33,3.35,PW,1728857056
305,punta arenas,-53.15,-70.9167,284.21,62,75,8.23,CL,1728856799
306,mareeba,-17.0,145.4333,296.62,74,28,1.96,AU,1728857059
307,paracuru,-3.41,-39.0306,299.04,79,63,4.71,BR,1728857060
308,woodlake,37.4211,-77.6793,296.96,61,0,4.12,US,1728857062
309,bandundu,-3.3167,17.3667,296.82,85,100,2.06,CD,1728857063
310,luebo,-5.35,21.4167,296.36,80,77,1.11,CD,1728857064
311,pisco,-13.7,-76.2167,293.18,68,0,7.2,PE,1728857065
312,la libertad,-2.2333,-80.9,295.96,83,40,4.63,EC,1728857067
313,petauke,-14.2426,31.3253,298.02,39,25,4.62,ZM,1728857068
314,atherton,53.5237,-2.4935,281.07,82,100,0.89,GB,1728857071
315,baikonur,45.6167,63.3167,275.65,93,92,5.97,KZ,1728857073
316,oum hadjer,13.2954,19.6966,301.64,58,99,3.03,TD,1728857075
317,weno,7.4515,151.8468,301.12,89,100,0.0,FM,1728857076
318,ramnagar,29.4,79.1167,293.44,74,63,1.5,IN,1728857078
319,isla vista,34.4133,-119.861,299.35,66,1,2.86,US,1728857049
320,sovetskaya gavan',48.9723,140.2878,278.01,43,42,2.15,RU,1728857081
321,soderhamn,61.3037,17.0592,278.96,97,100,1.55,SE,1728857082
322,jaru,-10.4389,-62.4664,306.88,34,75,1.55,BR,1728857059
323,sola,-13.8833,167.55,301.52,79,75,3.09,VU,1728857085
324,codrington,-38.2667,141.9667,287.56,80,18,7.75,AU,1728857086
325,chibougamau,49.9168,-74.3659,276.94,87,100,2.06,CA,1728857087
326,baise city,23.8997,106.6133,296.63,83,98,1.16,CN,1728857089
327,port-vila,-17.7338,168.3219,297.93,78,100,7.2,VU,1728857090
328,narvik,68.4384,17.4272,279.15,95,48,1.92,NO,1728857092
329,egilsstadir,65.2653,-14.3948,271.1,74,100,3.09,IS,1728857093
330,lethem,3.3803,-59.7968,307.18,55,20,5.14,GY,1728857094
331,fisterra,42.9049,-9.2629,291.19,83,100,2.98,ES,1728857096
332,mirnyy,62.5353,113.9611,263.06,92,86,3.21,RU,1728857097
333,erenhot,43.6475,111.9767,284.54,52,0,10.5,CN,1728857099
334,mar del plata,-38.0023,-57.5575,288.68,80,6,4.47,AR,1728856978
335,hastings,50.8552,0.5729,283.01,38,100,4.57,GB,1728857101
336,conception bay south,47.4999,-52.9981,282.77,87,61,9.28,CA,1728856809
337,zeya,53.75,127.2667,274.72,68,100,2.32,RU,1728857104
338,punaauia,-17.6333,-149.6,300.95,61,0,9.26,PF,1728857105
339,tura,25.5198,90.2201,293.36,93,3,1.7,IN,1728857106
340,czarnkow,52.9021,16.5641,284.36,76,100,9.63,PL,1728857109
341,wainwright,52.839,-110.8572,287.42,30,5,7.06,CA,1728857110
342,williams lake,52.1415,-122.1445,289.91,68,75,4.63,CA,1728857112
343,date,42.4681,140.8681,284.51,70,0,2.18,JP,1728857113
344,petawawa,45.9001,-77.3328,281.92,52,10,1.34,CA,1728857115
345,debre tabor,11.85,38.0167,284.9,82,80,0.38,ET,1728857116
346,tarko-sale,64.9225,77.785,273.19,87,97,6.46,RU,1728857117
347,ad dilinjat,30.8279,30.5363,294.95,86,0,1.5,EG,1728857119
348,ad dabbah,18.05,30.95,307.19,23,100,1.84,SD,1728857120
349,xichang,27.8964,102.2634,287.92,94,100,2.15,CN,1728857122
350,peterhead,57.5058,-1.7981,280.6,58,100,4.05,GB,1728857123
351,ciudad lazaro cardenas,17.9583,-102.2,301.64,74,44,4.45,MX,1728856984
352,ajdabiya,30.7554,20.2263,295.43,63,0,5.78,LY,1728857126
353,ulladulla,-35.35,150.4667,292.99,47,83,2.11,AU,1728857127
354,moab,38.5733,-109.5498,303.18,17,100,1.45,US,1728857066
355,bikenibeu village,1.3673,173.1241,304.13,70,20,5.66,KI,1728857131
356,vila do maio,15.1333,-23.2167,300.4,81,8,3.24,CV,1728857133
357,hithadhoo,-0.6,73.0833,301.21,74,100,4.7,MV,1728857097
358,masally,39.0,48.6667,289.3,94,100,2.52,AZ,1728857135
359,bonthe,7.5264,-12.505,298.86,88,100,2.81,SL,1728857136
360,westport,41.1415,-73.3579,291.9,77,100,5.66,US,1728857138
361,tselinnoye,53.0833,85.6667,268.04,92,14,1.71,RU,1728857139
362,merizo village,13.2658,144.6691,302.03,89,100,3.16,GU,1728857140
363,puerto aysen,-45.4,-72.7,282.67,99,96,1.6,CL,1728856874
364,pelabuhanratu,-6.9875,106.5514,298.55,90,100,1.62,ID,1728857143
365,san luis de la loma,17.2706,-100.8939,301.4,79,41,2.26,MX,1728857144
366,scarborough,54.2797,-0.4044,279.21,86,100,0.89,GB,1728856972
367,kitimat,54.0524,-128.6534,285.2,27,100,0.89,CA,1728857147
368,kailua-kona,19.6406,-155.9956,303.13,69,20,5.14,US,1728857149
369,amos,48.5669,-78.1162,276.4,63,78,3.86,CA,1728857150
370,manokwari,-0.8667,134.0833,299.78,75,100,1.31,ID,1728857151
371,port alfred,-33.5906,26.891,290.47,97,98,2.24,ZA,1728857152
372,kichmengskiy gorodok,59.9816,45.7854,275.27,67,100,3.86,RU,1728857154
373,cidreira,-30.1811,-50.2056,292.03,80,1,10.78,BR,1728856904
374,rielasingen-worblingen,47.7347,8.8401,284.59,97,100,0.63,DE,1728857156
375,katsuura,35.1333,140.3,293.71,71,4,5.73,JP,1728857159
376,butterworth,5.3991,100.3638,299.17,93,20,1.54,MY,1728857161
377,queenstown,-31.8976,26.8753,291.4,75,1,2.02,ZA,1728857118
378,susanville,40.4163,-120.653,294.72,41,0,1.79,US,1728857163
379,victorica,-36.2151,-65.4359,291.78,72,68,7.43,AR,1728857164
380,esmeraldas,-19.7625,-44.3139,296.14,70,98,4.63,BR,1728857166
381,ust'-ilimsk,58.0006,102.6619,268.5,55,100,4.03,RU,1728857167
382,cascais,38.6979,-9.4215,294.79,79,19,0.89,PT,1728857168
383,shingu,33.7333,135.9833,295.01,69,25,5.63,JP,1728857170
384,capinota,-17.7167,-66.2333,292.3,40,91,1.28,BO,1728857171
385,polyarnyy,69.1989,33.4478,277.43,78,100,6.95,RU,1728857172
386,volodarskiy,46.4013,48.5409,277.54,55,43,5.7,RU,1728857174
387,ola,59.5833,151.2833,274.59,86,50,2.22,RU,1728857175
388,buka,40.8108,69.1986,286.14,78,100,1.31,UZ,1728857176
389,azna,33.6095,48.9307,288.94,32,2,0.94,IR,1728857178
390,san felipe,10.3399,-68.7425,298.39,86,78,1.51,VE,1728857180
391,hotan,37.0997,79.9269,290.28,19,35,1.7,CN,1728857181
392,guasdualito,7.2424,-70.7324,301.13,74,20,4.63,VE,1728857183
393,baruun-urt,46.6806,113.2792,274.82,76,81,11.86,MN,1728857184
394,puerto ayacucho,5.6639,-67.6236,301.81,77,91,1.81,VE,1728857185
395,jolo,6.05,121.0167,298.41,86,67,1.01,PH,1728857187
396,ilebo,-4.3167,20.5833,294.48,98,98,0.84,CD,1728857188
397,rokytne,51.2796,27.214,280.23,83,100,4.08,UA,1728857189
398,mejit,10.2753,170.8646,301.65,77,63,6.81,MH,1728857191
399,laguna,38.421,-121.4238,301.61,45,0,4.12,US,1728857192
400,vernon,50.2581,-119.2691,296.9,39,27,1.03,CA,1728857041
401,islamorada,24.9243,-80.6278,300.93,92,62,2.78,US,1728857194
402,toliara,-23.35,43.6667,295.39,59,0,1.61,MG,1728857196
403,ranau,5.9538,116.6641,293.69,95,88,0.37,MY,1728857197
404,zhosaly,45.4878,64.0781,275.39,88,27,5.14,KZ,1728857198
405,horta,38.5333,-28.6333,294.27,92,75,12.35,PT,1728857200
406,malabrigo,-29.3464,-59.9696,299.12,47,25,4.49,AR,1728857201
407,klyuchi,52.2667,79.1667,268.01,77,22,1.86,RU,1728857204
408,bubaque,11.2833,-15.8333,301.26,79,100,4.43,GW,1728857205
409,luganville,-15.5333,167.1667,299.06,81,79,5.59,VU,1728857206
410,gedo,9.0167,37.45,283.59,91,83,1.15,ET,1728857207
411,hadibu,12.65,54.0333,299.66,67,86,0.5,YE,1728857209
412,baskale,38.0453,44.0172,281.95,60,5,2.43,TR,1728857210
413,opuwo,-18.0607,13.84,297.48,27,41,2.47,NA,1728857213
414,chistopol',55.3631,50.6424,273.91,53,8,2.47,RU,1728857214
415,aver-o-mar,41.4078,-8.7812,293.46,83,75,2.57,PT,1728857216
416,maldon,51.7311,0.6746,280.48,86,0,0.0,GB,1728857217
417,puerto el triunfo,13.2833,-88.55,300.98,78,57,1.83,SV,1728857218
418,ponca city,36.707,-97.0856,300.16,24,30,7.14,US,1728856979
419,aoulef,26.9667,1.0833,305.31,14,0,4.66,DZ,1728857221
420,dwarka,22.2394,68.9678,300.89,82,100,3.35,IN,1728857222
421,kidal,18.4411,1.4078,306.01,13,1,4.11,ML,1728857223
422,zhezqazghan,47.7833,67.7667,279.54,87,100,11.08,KZ,1728857225
423,wynyard,-41.0,145.7167,288.81,65,9,1.79,AU,1728857226
424,okhotsk,59.3833,143.3,273.97,75,38,2.44,RU,1728857227
425,christchurch,-43.5333,172.6333,285.05,63,40,1.54,NZ,1728857226
426,springfield,37.2153,-93.2982,298.77,25,0,6.71,US,1728857058
427,tome acu,-2.4189,-48.1522,303.51,38,100,1.4,BR,1728857231
428,kiama,-34.6833,150.8667,292.8,71,86,2.3,AU,1728857233
429,flin flon,54.7682,-101.865,279.06,65,75,2.06,CA,1728856959
430,narayanpet,16.7333,77.5,296.25,91,100,2.47,IN,1728857235
431,sao felix do xingu,-6.6447,-51.995,302.36,46,100,1.52,BR,1728857237
432,beau vallon,-20.4189,57.6953,294.83,72,48,7.38,MU,1728857238
433,newman,37.3138,-121.0208,299.85,53,0,2.68,US,1728857240
434,enewetak,11.3474,162.3373,301.86,75,84,7.09,MH,1728857241
435,spring creek,40.7266,-115.5859,297.82,17,22,0.89,US,1728857243
436,sakakah,29.9697,40.2064,296.91,31,0,2.44,SA,1728857247
437,taoudenni,22.6783,-3.9836,302.67,39,13,15.05,ML,1728857249
438,bathsheba,13.2167,-59.5167,302.49,79,40,8.75,BB,1728857250
439,olyokminsk,60.3736,120.4264,267.39,71,88,3.51,RU,1728857252
440,yengema,8.7167,-11.1667,294.43,99,98,0.4,SL,1728857253
441,casper,42.8666,-106.3131,292.48,23,0,3.09,US,1728857202
442,jasper,37.2001,-94.3502,299.18,22,0,5.14,US,1728857255
443,belen,36.4891,36.2233,293.92,88,20,5.66,TR,1728857257
444,sandakan,5.8402,118.1179,297.3,94,85,1.59,MY,1728857258
445,zaragoza,41.6561,-0.8773,293.04,71,0,0.45,ES,1728857259
446,acajutla,13.5928,-89.8275,301.39,70,83,2.65,SV,1728857261
447,griffith,41.5284,-87.4237,288.32,48,40,8.75,US,1728857262
448,ar raqqah,35.95,39.0167,297.9,57,11,3.95,SY,1728857264
449,curvelo,-18.7564,-44.4308,300.4,58,83,4.54,BR,1728857265
450,saint-pierre,-21.3393,55.4781,294.97,73,0,8.75,RE,1728857266
451,zhangye,38.9342,100.4517,285.38,36,91,4.58,CN,1728857268
452,mulheim,6.6072,-57.8881,300.21,77,77,4.33,GY,1728857269
453,oleksandriya,48.6696,33.1159,284.85,87,100,0.23,UA,1728857196
454,nagqu,31.5,92.0,272.11,41,98,1.5,CN,1728857272
455,bereznik,62.8551,42.7072,276.55,76,100,3.92,RU,1728857275
456,fraserburgh,57.6874,-2.0184,279.19,63,100,3.58,GB,1728857276
457,zapolyarnyy,69.4154,30.8136,275.05,82,98,4.99,RU,1728857277
458,menongue,-14.6585,17.691,292.57,33,63,1.43,AO,1728857279
459,keflavik,64.0049,-22.5624,273.39,59,0,4.63,IS,1728857280
460,margate,51.3813,1.3862,280.76,83,100,4.29,GB,1728857282
461,port shepstone,-30.7414,30.455,292.94,92,7,2.05,ZA,1728857283
462,cole harbour,44.6724,-63.4751,282.43,76,3,2.49,CA,1728857284
463,sudak,44.85,34.9667,286.66,69,83,3.48,UA,1728857286
464,endicott,42.0984,-76.0494,284.24,95,100,2.06,US,1728857287
465,dipayal,29.2608,80.94,292.04,88,21,1.39,NP,1728856986
466,tchintabaraden,15.8969,5.7985,305.78,23,62,4.06,NE,1728857289
467,yuanping,38.7153,112.7575,282.42,94,0,0.42,CN,1728857291
468,beloyarskiy,63.7119,66.6722,271.41,95,85,1.69,RU,1728857292
469,tralee,52.2704,-9.7026,282.43,98,94,1.85,IE,1728857293
470,vanimo,-2.6741,141.3028,299.38,90,100,2.13,PG,1728857295
471,kohtla-jarve,59.3986,27.2731,279.14,93,94,2.26,EE,1728857296
472,gadzhiyevo,69.2551,33.3362,277.3,79,100,6.7,RU,1728857166
473,georgetown,5.4112,100.3354,299.11,93,20,1.54,MY,1728857057
474,minab,27.1467,57.0801,301.91,69,0,0.36,IR,1728857189
475,ocean city,39.2776,-74.5746,295.47,76,4,4.47,US,1728857173
476,colonia,50.9333,6.95,280.91,85,0,1.54,DE,1728857303
477,ta`u,-14.2336,-169.5144,300.06,77,76,6.9,AS,1728857304
478,cabedelo,-6.9811,-34.8339,299.52,82,5,4.78,BR,1728857305
479,susuman,62.7833,148.1667,262.26,98,99,0.92,RU,1728857307
480,ahiri,19.4,80.0167,296.16,96,70,0.57,IN,1728857308
481,tshabong,-26.05,22.45,299.59,14,51,4.06,BW,1728857309
482,sao vicente,-23.9631,-46.3919,292.03,26,100,3.75,BR,1728857311
483,yemetsk,63.4721,41.7941,276.89,79,100,4.04,RU,1728857312
484,paarl,-33.7338,18.9752,286.61,86,6,3.5,ZA,1728857314
485,swakopmund,-22.6833,14.5333,287.03,84,64,1.34,NA,1728857315
486,vorkuta,67.5,64.0,272.12,95,58,6.53,RU,1728857316
487,soke,13.598,-5.9386,301.71,61,95,3.78,ML,1728857318
488,muborak,39.2553,65.1528,285.84,65,58,3.57,UZ,1728857319
489,pampa,35.5362,-100.9599,299.17,22,0,5.14,US,1728857321
490,afaahiti,-17.75,-149.2833,296.23,75,34,6.75,PF,1728857322
491,robertsport,6.7533,-11.3686,299.29,80,100,3.07,LR,1728857323
492,cuito,-12.3833,16.9333,292.2,44,90,2.27,AO,1728857325
493,viedma,-40.8135,-62.9967,290.39,32,9,6.43,AR,1728857148
494,bluefields,12.0137,-83.7635,302.19,84,75,4.12,NI,1728857329
495,kone,-21.0595,164.8658,296.91,58,100,2.27,NC,1728857330
496,turpan,42.9333,89.1667,291.24,37,8,0.65,CN,1728857331
497,khandyga,62.6667,135.6,265.49,92,100,0.99,RU,1728857333
498,moranbah,-22.0016,148.0466,292.91,76,100,7.06,AU,1728857334
499,harper,4.375,-7.7169,297.3,89,100,2.62,LR,1728857336
500,bollnas,61.3482,16.3946,278.1,98,97,0.98,SE,1728857339
501,aljezur,37.3191,-8.8033,291.31,94,7,4.11,PT,1728857340
502,awjilah,29.1081,21.2869,298.68,45,0,5.55,LY,1728857342
503,colonia menno,-22.3667,-59.8167,306.21,41,84,5.21,PY,1728857343
504,souillac,-20.5167,57.5167,294.83,71,78,6.91,MU,1728857345
505,baiti,13.745,-14.7482,299.35,81,86,4.38,SN,1728857346
506,vila franca do campo,37.7167,-25.4333,295.38,96,100,7.52,PT,1728857347
507,jabor,5.921,169.6434,302.46,73,35,5.81,MH,1728857349
508,palmer,42.1584,-72.3287,281.22,79,100,2.57,US,1728857350
509,jacmel,18.2342,-72.5347,301.99,80,18,2.41,HT,1728857351
510,aladag,37.5485,35.396,291.57,92,60,0.89,TR,1728857352
511,la gi,10.6667,107.7833,298.59,87,98,1.54,VN,1728857354
512,thunder bay,48.4001,-89.3168,283.14,62,100,2.57,CA,1728857068
513,gisborne,-38.6533,178.0042,286.07,88,100,1.55,NZ,1728857357
514,knysna,-34.0363,23.0471,289.26,85,73,2.84,ZA,1728857358
515,walvis bay,-22.9575,14.5053,288.88,79,75,5.81,NA,1728857359
516,oytal,42.9057,73.2697,284.51,84,97,1.97,KZ,1728857360
517,pinotepa nacional,16.3167,-98.0167,301.73,69,77,2.6,MX,1728857362
518,hola,51.5377,23.1902,280.72,77,17,6.81,PL,1728857364
519,juankoski,63.0667,28.35,277.13,93,93,1.13,FI,1728857365
520,matamey,13.4231,8.4749,303.74,37,100,2.89,NE,1728857366
521,muravlenko,63.7898,74.523,273.52,88,100,5.85,RU,1728857368
522,berlin,52.5244,13.4105,283.68,79,75,9.83,DE,1728857367
523,hargeysa,9.56,44.065,295.65,58,12,0.76,SO,1728857370
524,swan hill,-35.3378,143.5544,293.18,32,73,3.6,AU,1728857371
525,kalemie,-5.9475,29.1947,296.67,58,20,0.77,CD,1728857373
526,pacific grove,36.6177,-121.9166,294.49,91,75,3.6,US,1728857374
527,salalah,17.0151,54.0924,298.2,78,40,0.51,OM,1728857245
528,north bend,43.4065,-124.2243,295.52,80,35,3.34,US,1728857376
529,kavieng,-2.5744,150.7967,301.46,78,72,5.27,PG,1728857378
530,nizhneudinsk,54.9076,99.0276,267.65,76,100,0.92,RU,1728857379
531,champerico,14.3,-91.9167,301.98,70,32,3.3,GT,1728857381
532,abepura,-2.6333,140.5833,299.6,89,20,1.03,ID,1728857259
533,kirensk,57.7853,108.1119,267.27,70,100,3.69,RU,1728857383
534,deltebre,40.7499,0.7868,292.51,92,35,1.61,ES,1728857384
535,urzhum,57.1141,49.9996,271.98,61,6,2.53,RU,1728857385
536,alibag,18.6411,72.8792,300.1,84,71,1.88,IN,1728857294
537,san jose del guaviare,2.5729,-72.6459,298.25,87,82,0.59,CO,1728857388
538,kristiansund,63.1115,7.732,277.66,87,100,0.0,NO,1728857354
539,polatsk,55.4859,28.7756,280.75,94,100,3.8,BY,1728857391
540,berezovyy,51.6667,135.7,276.19,52,100,2.19,RU,1728857393
541,jalqani,12.4486,34.2186,298.58,69,100,3.01,SD,1728857394
542,kupang,-10.1667,123.5833,299.15,87,97,1.96,ID,1728857395
543,balcarce,-37.8462,-58.2552,291.38,50,12,0.89,AR,1728857396
544,zorgo,12.2489,-0.6158,301.97,62,61,4.14,BF,1728857398
545,sattenapalle,16.4,80.1833,296.79,95,100,1.53,IN,1728857399
546,naracoorte,-36.9579,140.7383,287.17,72,2,4.63,AU,1728857400
547,aur,8.1499,171.1687,301.99,75,4,6.37,MH,1728857401
548,zheleznodorozhnyy,55.7503,38.0042,277.9,44,100,6.28,RU,1728857403
549,pyt-yakh,60.7499,72.8582,272.74,66,97,3.04,RU,1728857404
550,remire-montjoly,4.9167,-52.2667,301.17,78,0,2.06,GF,1728857406
551,brookings,44.3114,-96.7984,285.47,43,0,8.75,US,1728857178
552,tangjin,36.8944,126.6297,290.59,81,100,4.06,KR,1728857116
553,dabwali,29.95,74.7333,295.73,28,13,1.75,IN,1728857308
554,itaituba,-4.2761,-55.9836,302.49,58,100,0.99,BR,1728857412
555,mangrol,21.1167,70.1167,300.87,81,100,2.05,IN,1728857413
556,porbandar,21.6422,69.6093,300.93,79,100,2.02,IN,1728857414
557,massawa,15.6097,39.45,303.91,72,1,2.17,ER,1728857416
558,monticello,45.3055,-93.7941,285.57,56,100,9.26,US,1728857349
559,bel ombre,-4.6167,55.4167,299.55,81,99,7.88,SC,1728857418
560,shimoda,34.6667,138.95,292.62,77,51,6.64,JP,1728857419
561,bengkulu,-3.8004,102.2655,296.6,92,100,1.65,ID,1728857422
562,al jawf,29.5,38.75,296.5,34,0,2.02,SA,1728857424
563,miracema do tocantins,-9.5618,-48.3967,306.98,29,51,0.63,BR,1728857425
564,tual,-5.6667,132.75,300.8,78,93,6.63,ID,1728857426
565,kralendijk,12.15,-68.2667,304.14,66,20,8.23,BQ,1728857168
566,melekhovo,56.2773,41.2935,276.6,55,98,5.14,RU,1728857428
567,urengoy,65.9667,78.3667,273.61,85,75,8.43,RU,1728857430
568,inzhavino,52.3185,42.4937,274.95,52,4,6.71,RU,1728857431
569,balqash,46.8481,74.995,277.71,41,100,9.2,KZ,1728857432
570,ginir,7.1333,40.7,288.42,76,65,2.19,ET,1728857434
571,lagdo,9.05,13.7333,296.8,88,98,0.38,CM,1728857435
572,muisne,0.6,-80.0333,297.53,83,100,4.48,EC,1728857436
573,central city,37.2939,-87.1233,300.04,52,0,4.12,US,1728857437
574,lagoa,39.05,-27.9833,291.52,88,99,15.9,PT,1728857439
575,port hedland,-20.3167,118.5667,299.18,17,12,4.63,AU,1728857441
576,al bawiti,28.3492,28.8659,299.32,32,0,1.85,EG,1728857442
577,mildura,-34.2,142.15,292.08,53,35,5.02,AU,1728857444
578,casino,-28.8667,153.05,290.71,65,80,1.28,AU,1728857445
